{
	"GetAllStoresResult": {
		"Messages": [],
		"StoreList": [{
			"StoreId": "4111",
			"Name": "Järfälla, Stäket",
			"Lat": 59.4693257,
			"Long": 17.8119154,
			"StreetAddress": "Skarprättarvägen 36-38",
			"PostalCode": 17677,
			"City": "Järfälla",
			"Type": "h",
			"Description": null,
			"TodaysOpeningTime": null,
			"TodaysClosingTime": null
		},
		{
			"StoreId": "4113",
			"Name": "Stockholm, Mariahallen",
			"Lat": 59.3182491,
			"Long": 18.0573183,
			"StreetAddress": "Hornsgatan 74",
			"PostalCode": 11821,
			"City": "Stockholm",
			"Type": "h",
			"Description": null,
			"TodaysOpeningTime": null,
			"TodaysClosingTime": null
		},
		{
			"StoreId": "4115",
			"Name": "Malmö, Kronprinsen",
			"Lat": 55.5988501,
			"Long": 12.9848597,
			"StreetAddress": "Regementsgatan 52, Box 5200",
			"PostalCode": 21748,
			"City": "Malmö",
			"Type": "h",
			"Description": null,
			"TodaysOpeningTime": null,
			"TodaysClosingTime": null
		},
		{
			"StoreId": "4118",
			"Name": "Eskilstuna, Smeden",
			"Lat": 59.3750202,
			"Long": 16.5298787,
			"StreetAddress": "Tivoliallén 2",
			"PostalCode": 63352,
			"City": "Eskilstuna",
			"Type": "h",
			"Description": null,
			"TodaysOpeningTime": null,
			"TodaysClosingTime": null
		},
		{
			"StoreId": "4119",
			"Name": "Järfälla, Jakobsbergs Centrum",
			"Lat": 59.4236013,
			"Long": 17.8366556,
			"StreetAddress": "Riddarplatsen 14",
			"PostalCode": 17730,
			"City": "Järfälla",
			"Type": "h",
			"Description": null,
			"TodaysOpeningTime": null,
			"TodaysClosingTime": null
		},
		{
			"StoreId": "4123",
			"Name": "Lund, Karhögstorg",
			"Lat": 55.6945378,
			"Long": 13.1914994,
			"StreetAddress": "Karhögstorg 2A",
			"PostalCode": 22358,
			"City": "Lund",
			"Type": "h",
			"Description": null,
			"TodaysOpeningTime": null,
			"TodaysClosingTime": null
		},
		{
			"StoreId": "4127",
			"Name": "Stockholm, Skanstull",
			"Lat": 59.3071792,
			"Long": 18.0755181,
			"StreetAddress": "Ringvägen 100",
			"PostalCode": 11860,
			"City": "Stockholm",
			"Type": "h",
			"Description": null,
			"TodaysOpeningTime": null,
			"TodaysClosingTime": null
		},
		{
			"StoreId": "4129",
			"Name": "Stockholm, Odenplan",
			"Lat": 59.343056,
			"Long": 18.0460183,
			"StreetAddress": "Karlbergsvägen 24",
			"PostalCode": 11327,
			"City": "Stockholm",
			"Type": "h",
			"Description": null,
			"TodaysOpeningTime": null,
			"TodaysClosingTime": null
		},
		{
			"StoreId": "4131",
			"Name": "Hudiksvall",
			"Lat": 61.7292333,
			"Long": 17.1033354,
			"StreetAddress": "V Tullgatan 13",
			"PostalCode": 82430,
			"City": "Hudiksvall",
			"Type": "h",
			"Description": null,
			"TodaysOpeningTime": null,
			"TodaysClosingTime": null
		},
		{
			"StoreId": "4138",
			"Name": "Solna Centrum",
			"Lat": 59.359522,
			"Long": 18.0008541,
			"StreetAddress": "Solna Torg 10",
			"PostalCode": 17145,
			"City": "Solna",
			"Type": "h",
			"Description": null,
			"TodaysOpeningTime": null,
			"TodaysClosingTime": null
		}]
	}
}